City_ID,City,Lat,Lng,Max Temp,Humidity,Cloudiness,Wind Speed,Country,Date
0,college,64.8569,-147.8028,-13.91,78,75,1.54,US,1673916260
1,chokurdakh,70.6333,147.9167,-32.8,97,79,4.57,RU,1673916220
2,kasongo-lunda,-6.4667,16.8167,19.63,97,100,0.95,CD,1673916475
3,esperance,-33.8667,121.9,16.96,56,93,6.77,AU,1673916240
4,tuktoyaktuk,69.4541,-133.0374,-23.0,77,75,2.06,CA,1673916382
5,hilo,19.7297,-155.09,26.72,71,0,7.2,US,1673916164
6,komsomolskiy,40.4272,71.7189,-11.6,79,3,0.0,UZ,1673916476
7,puerto ayora,-0.7393,-90.3518,24.19,94,56,1.34,EC,1673916244
8,albany,42.6001,-73.9662,-1.97,65,13,2.23,US,1673915993
9,castro,-24.7911,-50.0119,19.13,90,100,0.26,BR,1673916418
10,rawatsar,29.2833,74.3833,4.89,22,0,2.71,IN,1673916477
11,tasiilaq,65.6145,-37.6368,-6.91,72,100,4.01,GL,1673916427
12,bluff,-46.6,168.3333,15.82,74,74,3.59,NZ,1673916271
13,new norfolk,-42.7826,147.0587,23.77,37,55,0.89,AU,1673916320
14,ushuaia,-54.8,-68.3,7.81,61,40,10.29,AR,1673916266
15,portland,45.5234,-122.6762,8.73,79,0,1.34,US,1673916090
16,mar del plata,-38.0023,-57.5575,20.65,89,75,5.66,AR,1673916169
17,georgetown,5.4112,100.3354,20.87,85,20,2.57,MY,1673916389
18,gornoye loo,43.7129,39.6049,5.88,59,0,2.79,RU,1673916479
19,atuona,-9.8,-139.0333,25.8,76,18,7.43,PF,1673916287
20,busselton,-33.65,115.3333,17.67,43,1,5.14,AU,1673916206
21,ribeira grande,38.5167,-28.7,13.21,77,96,3.13,PT,1673916375
22,gat,31.61,34.7642,11.01,100,5,2.15,IL,1673916481
23,punta arenas,-53.15,-70.9167,11.06,37,0,10.29,CL,1673915998
24,yellowknife,62.456,-114.3525,-14.71,85,100,5.14,CA,1673916204
25,thompson,55.7435,-97.8558,-11.91,85,100,2.06,CA,1673916283
26,ancud,-41.8697,-73.8203,12.92,81,100,1.13,CL,1673916300
27,loandjili,-4.7561,11.8578,25.2,88,100,1.3,CG,1673916482
28,tuatapere,-46.1333,167.6833,17.62,65,56,3.8,NZ,1673916483
29,hithadhoo,-0.6,73.0833,26.28,67,87,1.69,MV,1673916286
30,rikitea,-23.1203,-134.9692,25.4,68,2,2.4,PF,1673916274
31,kahului,20.8947,-156.47,26.53,71,40,3.09,US,1673916369
32,cherskiy,68.75,161.3,-38.16,96,100,1.45,RU,1673916484
33,ipixuna,-1.7625,-48.8043,22.25,97,32,1.51,BR,1673916484
34,mola di bari,41.0609,17.0873,10.68,74,92,6.36,IT,1673916485
35,cape town,-33.9258,18.4232,21.73,72,0,5.14,ZA,1673916300
36,morehead,37.2711,-87.1764,12.74,92,100,6.69,US,1673916485
37,saint anthony,45.0205,-93.218,0.58,94,100,3.6,US,1673916255
38,simpang,-1.2667,104.0833,24.93,90,100,1.6,ID,1673916486
39,khatanga,71.9667,102.5,-40.16,98,25,3.11,RU,1673916282
40,zhigansk,66.7697,123.3711,-50.17,100,74,1.93,RU,1673916487
41,arraial do cabo,-22.9661,-42.0278,24.92,83,0,8.23,BR,1673916275
42,terme,41.2092,36.9739,0.96,64,5,2.35,TR,1673916488
43,avarua,-21.2078,-159.775,27.03,74,20,3.09,CK,1673916488
44,saint-philippe,-21.3585,55.7679,23.77,83,31,4.66,RE,1673916489
45,netrakona,24.8833,90.7167,12.66,61,0,2.06,BD,1673916489
46,tiksi,71.6872,128.8694,-29.74,100,100,3.38,RU,1673916490
47,vaini,-21.2,-175.2,30.09,74,40,3.6,TO,1673916214
48,esfarayen,37.0765,57.5101,-10.19,67,92,1.05,IR,1673916491
49,klaksvik,62.2266,-6.589,-3.49,62,100,8.92,FO,1673916273
50,east london,-33.0153,27.9116,23.44,93,100,2.29,ZA,1673916231
51,jamestown,42.097,-79.2353,-0.39,44,100,2.01,US,1673916492
52,saskylakh,71.9167,114.0833,-31.74,99,35,3.26,RU,1673916366
53,menongue,-14.6585,17.691,17.13,95,100,1.53,AO,1673916493
54,kurchum,48.5722,83.6542,-22.35,98,100,1.21,KZ,1673916493
55,caravelas,-17.7125,-39.2481,23.61,88,16,2.37,BR,1673916494
56,roma,43.2128,-75.4557,-3.72,74,0,2.06,US,1673916494
57,pevek,69.7008,170.3133,-35.18,100,17,0.62,RU,1673916495
58,virginia beach,36.8529,-75.978,6.33,48,40,2.57,US,1673916216
59,rocha,-34.4833,-54.3333,18.37,91,0,3.13,UY,1673916496
60,poco verde,-10.7083,-38.1833,21.47,88,100,2.18,BR,1673916497
61,hays,30.0502,-98.0336,18.46,68,100,1.12,US,1673916492
62,port alfred,-33.5906,26.891,22.88,99,100,1.48,ZA,1673916194
63,dangriga,16.9692,-88.2321,23.89,71,30,5.02,BZ,1673916498
64,ponnani,10.767,75.9252,20.62,69,69,4.34,IN,1673916498
65,saint-augustin,51.226,-58.6502,-0.48,96,100,11.57,CA,1673916499
66,kavaratti,10.5669,72.642,26.17,73,17,2.77,IN,1673916499
67,evensk,61.95,159.2333,-18.5,78,100,2.67,RU,1673916500
68,kodiak,57.79,-152.4072,2.73,93,100,6.69,US,1673916315
69,ahipara,-35.1667,173.1667,22.25,56,27,3.71,NZ,1673916501
70,yanggu,36.1106,115.7753,-2.26,58,7,1.26,CN,1673916501
71,upernavik,72.7868,-56.1549,-19.35,96,100,2.55,GL,1673916383
72,luanda,-8.8368,13.2343,25.07,81,98,3.07,AO,1673916502
73,kapaa,22.0752,-159.319,26.43,70,0,3.09,US,1673916258
74,arari,-3.4536,-44.78,22.47,97,100,1.16,BR,1673916503
75,parangan,5.0839,119.9383,27.61,76,97,3.92,PH,1673916503
76,barrow,71.2906,-156.7887,-29.99,76,40,7.2,US,1673915995
77,mount gambier,-37.8333,140.7667,34.69,17,100,4.84,AU,1673916504
78,faya,18.3851,42.4509,12.29,79,98,1.43,SA,1673916505
79,qaanaaq,77.484,-69.3632,-24.83,61,64,2.61,GL,1673916314
80,lagos,6.5833,3.75,27.18,88,6,0.95,NG,1673916430
81,leshukonskoye,64.8989,45.7622,-6.29,89,100,5.64,RU,1673916506
82,hermanus,-34.4187,19.2345,22.67,83,96,6.49,ZA,1673916245
83,evans,33.5337,-82.1307,9.59,59,100,2.19,US,1673916319
84,iqaluit,63.7506,-68.5145,-31.84,74,0,2.06,CA,1673916399
85,kavieng,-2.5744,150.7967,28.38,68,100,2.6,PG,1673916507
86,provideniya,64.3833,-173.3,-14.94,56,75,12.0,RU,1673916329
87,sulangan,11.1373,123.7228,26.65,84,86,4.29,PH,1673916508
88,the pas,53.8251,-101.2541,-8.99,79,100,0.0,CA,1673916307
89,kruisfontein,-34.0033,24.7314,21.01,95,100,3.63,ZA,1673916264
90,ingham,42.6,-84.3833,1.16,93,100,7.2,US,1673916508
91,longyearbyen,78.2186,15.6401,-8.09,62,20,10.29,SJ,1673916345
92,alice springs,-23.7,133.8833,31.23,40,3,3.09,AU,1673916372
93,aripuana,-9.1667,-60.6333,21.92,98,97,1.41,BR,1673916509
94,emden,53.3667,7.2167,3.2,97,100,8.0,DE,1673916510
95,shirokiy,49.758,129.523,-23.53,97,100,1.83,RU,1673916510
96,sao felix do xingu,-6.6447,-51.995,21.97,98,99,0.82,BR,1673916511
97,nabire,-3.3667,135.4833,29.53,68,82,1.25,ID,1673916351
98,olafsvik,64.8945,-23.7142,-1.94,71,66,9.12,IS,1673916512
99,pedernales,18.0384,-71.744,24.22,75,82,0.85,DO,1673916512
100,kokuy,52.2037,117.5529,-35.98,100,87,0.38,RU,1673916513
101,kaitangata,-46.2817,169.8464,20.17,56,77,4.31,NZ,1673916513
102,catuday,16.2923,119.8062,25.48,74,100,4.26,PH,1673916513
103,mataura,-46.1927,168.8643,19.74,52,90,2.88,NZ,1673916221
104,cidreira,-30.1811,-50.2056,23.52,82,69,4.97,BR,1673916420
105,kaeo,-35.1,173.7833,24.62,60,28,6.18,NZ,1673916514
106,wattegama,6.7989,81.4808,21.63,95,100,1.8,LK,1673916400
107,ponta delgada,37.7333,-25.6667,13.4,71,75,4.63,PT,1673916515
108,port elizabeth,-33.918,25.5701,21.84,99,75,2.06,ZA,1673916515
109,katsuura,35.1333,140.3,8.21,60,92,4.28,JP,1673916396
110,ilulissat,69.2167,-51.1,-19.99,54,75,8.75,GL,1673916516
111,ilula,-7.6766,36.0366,15.57,98,93,1.31,TZ,1673916517
112,tabou,4.423,-7.3528,25.75,81,5,0.88,CI,1673916517
113,bathsheba,13.2167,-59.5167,24.9,79,13,4.72,BB,1673916518
114,victoria,22.2855,114.1577,12.57,80,100,5.81,HK,1673916377
115,ziarat,30.3823,67.7282,-2.79,42,0,2.74,PK,1673916518
116,tambacounda,13.7539,-13.7586,23.03,28,0,2.06,SN,1673916519
117,alekseyevsk,57.8406,108.3492,-25.23,98,100,1.36,RU,1673916519
118,verkhoyansk,67.5447,133.385,-43.13,99,100,0.63,RU,1673916520
119,bredasdorp,-34.5322,20.0403,20.96,91,100,7.46,ZA,1673916291
120,iracoubo,5.4802,-53.2011,24.54,88,100,4.8,GF,1673916520
121,codrington,-38.2667,141.9667,35.0,19,100,6.1,AU,1673916521
122,touros,-5.1989,-35.4608,25.99,77,33,5.12,BR,1673916001
123,kamaishi,39.2667,141.8833,1.03,47,28,2.06,JP,1673916480
124,port pirie,-33.1833,138.0167,37.32,24,8,6.72,AU,1673916522
125,san luis,-33.295,-66.3356,24.96,34,19,4.22,AR,1673916522
126,altay,47.8667,88.1167,-20.21,80,88,2.1,CN,1673916523
127,monrovia,6.3005,-10.7969,25.79,85,18,1.66,LR,1673916523
128,constitucion,-35.3333,-72.4167,12.72,88,10,3.93,CL,1673916523
129,elizabeth city,36.2946,-76.2511,5.71,53,100,0.89,US,1673915783
130,hovd,48.0056,91.6419,-17.63,73,100,0.31,MN,1673916524
131,tautira,-17.7333,-149.15,26.28,68,98,1.82,PF,1673916312
132,ngorongoro,-3.2397,35.4875,9.19,81,9,1.44,TZ,1673916525
133,sobolevo,54.4299,31.8996,-0.71,97,100,5.65,RU,1673916525
134,ostrovnoy,68.0531,39.5131,-1.36,86,76,10.2,RU,1673916526
135,alexandria,31.2156,29.9553,11.3,73,9,0.86,EG,1673916260
136,lenger,42.183,69.8839,-16.31,55,0,3.4,KZ,1673916528
137,puerto suarez,-18.95,-57.8,24.5,87,66,1.46,BO,1673916528
138,yerbogachen,61.2767,108.0108,-51.8,100,67,1.35,RU,1673916529
139,geraldton,-28.7667,114.6,21.23,49,0,8.23,AU,1673916529
140,avera,33.194,-82.5271,11.1,50,100,2.72,US,1673916530
141,bilibino,68.0546,166.4372,-28.5,91,100,2.52,RU,1673916530
142,hobart,-42.8794,147.3294,24.21,59,75,5.66,AU,1673916087
143,guerrero negro,27.9769,-114.0611,18.25,75,100,6.44,MX,1673916531
144,dunedin,-45.8742,170.5036,19.89,57,60,1.79,NZ,1673916245
145,iralaya,15.0,-83.2333,22.4,70,6,3.27,HN,1673916532
146,andros town,24.7,-77.7667,17.98,55,0,2.58,BS,1673916532
147,turukhansk,65.8167,87.9833,-35.51,85,8,2.59,RU,1673916532
148,kupang,-10.1667,123.5833,28.04,75,100,3.02,ID,1673916533
149,severodvinsk,64.5635,39.8302,-0.94,87,100,7.65,RU,1673916533
150,cap malheureux,-19.9842,57.6142,25.82,70,8,4.02,MU,1673916533
151,san patricio,28.017,-97.5169,21.17,78,0,1.78,US,1673916534
152,coquimbo,-29.9533,-71.3436,17.85,72,20,4.12,CL,1673916197
153,talcahuano,-36.7167,-73.1167,16.82,63,0,6.17,CL,1673916441
154,hirara,24.8,125.2833,17.15,77,75,7.2,JP,1673916535
155,pidhorodne,48.5753,35.1068,-0.18,85,100,5.32,UA,1673916535
156,dikson,73.5069,80.5464,-36.72,85,5,2.52,RU,1673916267
157,petropavlovsk-kamchatskiy,53.0452,158.6483,-17.67,46,0,4.0,RU,1673916536
158,sola,-13.8833,167.55,27.72,74,89,5.77,VU,1673916395
159,nouadhibou,20.931,-17.0347,20.99,46,100,5.66,MR,1673916536
160,korla,41.7597,86.1469,-16.0,94,76,0.73,CN,1673916537
161,marevo,57.3146,32.0804,-1.75,92,100,3.73,RU,1673916537
162,hamilton,39.1834,-84.5333,6.36,91,100,6.69,US,1673916398
163,marly,50.3456,3.5496,-1.19,95,7,3.09,FR,1673916538
164,havre-saint-pierre,50.2334,-63.5986,0.2,86,100,11.32,CA,1673916289
165,nadvoitsy,63.8667,34.3167,0.56,97,100,7.4,RU,1673916539
166,normandin,48.8333,-72.5321,-11.93,72,93,3.6,CA,1673916539
167,ganzhou,28.8184,115.4327,3.24,61,38,1.03,CN,1673916539
168,vao,-22.6667,167.4833,24.31,70,100,7.53,NC,1673916393
169,duliagaon,27.3667,95.3167,12.93,81,87,0.37,IN,1673916540
170,fort nelson,58.8053,-122.7002,-12.81,91,75,1.03,CA,1673916541
171,zalantun,48.0,122.7167,-16.98,66,0,6.01,CN,1673916541
172,beringovskiy,63.05,179.3167,-19.64,88,100,8.98,RU,1673916542
173,carnarvon,-24.8667,113.6333,24.69,49,0,10.52,AU,1673916243
174,taltal,-25.4,-70.4833,19.25,80,9,1.76,CL,1673916380
175,saldanha,-33.0117,17.9442,16.03,88,5,1.02,ZA,1673916153
176,nisia floresta,-6.0911,-35.2086,26.21,79,100,3.03,BR,1673916543
177,sindal,57.4712,10.2031,3.85,96,100,7.91,DK,1673916544
178,shubarshi,48.5872,57.1869,-13.01,76,16,3.9,KZ,1673916544
179,itaituba,-4.2761,-55.9836,23.97,89,100,0.48,BR,1673916544
180,jatai,-17.8814,-51.7144,20.8,92,100,0.54,BR,1673916545
181,muriae,-21.1306,-42.3664,22.05,95,0,1.58,BR,1673916545
182,saint-francois,46.4154,3.9054,1.69,93,0,2.06,FR,1673916546
183,leh,34.1667,77.5833,-21.34,74,11,1.02,IN,1673916546
184,buchanan,5.8808,-10.0467,25.55,86,10,1.97,LR,1673916547
185,rawah,34.4816,41.9093,9.77,78,74,1.64,IQ,1673916547
186,mamakan,57.8161,114.0028,-38.98,100,72,0.06,RU,1673916548
187,yar-sale,66.8333,70.8333,-14.73,96,100,6.22,RU,1673916548
188,birao,10.2849,22.7882,20.34,23,98,3.67,CF,1673916549
189,islamkot,24.6997,70.177,10.67,14,4,4.45,PK,1673916550
190,berlevag,70.8578,29.0864,0.97,80,75,7.2,NO,1673916435
191,payo,-3.7508,103.6372,23.76,94,100,0.58,ID,1673916550
192,bosaso,11.2842,49.1816,22.9,75,2,0.87,SO,1673916551
193,mareeba,-17.0,145.4333,26.91,88,100,2.03,AU,1673916551
194,cockburn town,21.4612,-71.1419,21.98,56,20,0.51,TC,1673916473
195,peniche,39.3558,-9.3811,14.68,89,100,13.34,PT,1673916281
196,taoudenni,22.6783,-3.9836,18.14,22,65,5.03,ML,1673916509
197,chirilagua,13.2203,-88.1386,27.83,75,94,1.67,SV,1673916553
198,babstovo,48.1167,132.4833,-25.1,96,98,1.11,RU,1673916553
199,gazanjyk,39.2446,55.5154,-3.9,66,77,5.28,TM,1673916515
200,sistranda,63.7256,8.834,-0.02,72,100,9.14,NO,1673916554
201,steinau,53.6833,8.8833,3.13,93,100,2.57,DE,1673916554
202,airai,-8.9266,125.4092,21.85,66,59,1.18,TL,1673916262
203,anadyr,64.75,177.4833,-21.72,71,0,7.0,RU,1673916555
204,bodden town,19.2833,-81.25,23.0,64,20,3.6,KY,1673916555
205,pasighat,28.0667,95.3333,12.88,75,66,0.79,IN,1673916556
206,placido de castro,-10.3353,-67.1856,22.22,96,100,0.09,BR,1673916557
207,ojuelos de jalisco,21.8667,-101.5833,14.21,17,100,3.52,MX,1673916557
208,la ligua,-32.4524,-71.2311,17.0,74,14,1.72,CL,1673916558
209,souillac,-20.5167,57.5167,25.21,78,40,7.2,MU,1673916558
210,kamina,-8.7386,24.9906,17.41,99,100,2.13,CD,1673916558
211,puerto ayacucho,5.6639,-67.6236,26.5,75,100,1.67,VE,1673916559
212,oster,50.9506,30.8823,1.91,93,100,8.25,UA,1673916560
213,aklavik,68.2191,-135.0107,-28.77,100,91,1.59,CA,1673916560
214,bilma,18.6853,12.9164,15.56,27,18,3.36,NE,1673916561
215,kyra,49.5776,111.9753,-24.48,85,38,1.7,RU,1673916561
216,port hardy,50.6996,-127.4199,7.1,100,100,2.57,CA,1673916407
217,nikolskoye,59.7035,30.7861,1.77,94,100,3.65,RU,1673916537
218,merauke,-8.4667,140.3333,28.54,73,100,3.07,ID,1673916563
219,chuy,-33.6971,-53.4616,20.05,78,0,3.99,UY,1673916563
220,agadir,30.4202,-9.5982,10.25,76,0,2.52,MA,1673916563
221,kyshtovka,56.555,76.6271,-13.16,96,100,3.72,RU,1673916564
222,labuhan,-6.8844,112.2051,26.68,80,100,2.62,ID,1673916564
223,azua,18.4532,-70.7349,19.48,71,0,2.76,DO,1673916301
224,bandarbeyla,9.4942,50.8122,23.47,77,66,6.65,SO,1673916316
225,orsha,54.5153,30.4053,-0.22,98,100,5.89,BY,1673916565
226,saint george,37.1041,-113.5841,9.29,73,0,3.09,US,1673916566
227,lugovoy,42.9472,72.7644,-14.99,82,4,0.9,KZ,1673916566
228,champerico,14.3,-91.9167,29.3,72,5,3.92,GT,1673916488
229,clyde river,70.4692,-68.5914,-22.87,77,100,4.63,CA,1673916217
230,dabat,12.9842,37.765,10.37,74,4,2.08,ET,1673916569
231,te anau,-45.4167,167.7167,22.1,44,4,1.5,NZ,1673916569
232,oksovskiy,62.6062,39.8984,-3.59,91,95,5.65,RU,1673916570
233,margate,51.3813,1.3862,-1.13,78,92,1.34,GB,1673916392
234,narsaq,60.9167,-46.05,-16.88,65,21,5.19,GL,1673916570
235,kieta,-6.2167,155.6333,28.65,76,73,1.9,PG,1673916234
236,kyrksaeterora,63.2906,9.0891,-8.38,87,100,3.07,NO,1673916571
237,ponta do sol,32.6667,-17.1,15.98,71,39,2.15,PT,1673916572
238,sechura,-5.5569,-80.8222,22.53,68,57,6.18,PE,1673916572
239,nishihara,26.1842,127.7558,17.59,64,75,2.57,JP,1673916572
240,torbay,47.6666,-52.7314,6.39,98,100,5.66,CA,1673916378
241,hervey bay,-25.2986,152.8535,22.79,93,100,5.36,AU,1673916574
242,namibe,-15.1961,12.1522,23.2,78,96,2.44,AO,1673916575
243,kamenka,51.3223,42.7678,-4.82,95,100,4.67,RU,1673916575
244,merzifon,40.8733,35.4631,-4.3,93,6,0.0,TR,1673916576
245,macusani,-14.0833,-70.4333,3.27,81,100,2.78,PE,1673916576
246,maumere,-8.6199,122.2111,28.34,71,88,0.5,ID,1673916577
247,redmond,47.674,-122.1215,8.29,79,67,1.34,US,1673916106
248,joaima,-16.6542,-41.0306,20.59,96,85,0.87,BR,1673916578
249,bonavista,48.6499,-53.1147,2.61,99,100,9.25,CA,1673916578
250,srednekolymsk,67.45,153.6833,-43.92,99,70,2.36,RU,1673916579
251,coffs harbour,-30.3,153.1333,25.98,65,40,3.09,AU,1673916579
252,troy,42.6056,-83.1499,1.37,89,100,3.09,US,1673916572
253,nacozari,25.3366,-108.2574,20.03,69,0,3.38,MX,1673916580
254,luderitz,-26.6481,15.1594,19.21,85,100,2.74,NA,1673916581
255,lorengau,-2.0226,147.2712,28.39,73,100,1.89,PG,1673916581
256,yulara,-25.2406,130.9889,34.52,27,0,3.72,AU,1673916436
257,madang,-5.2246,145.7966,29.92,62,100,1.2,PG,1673916582
258,mezen,65.8522,44.24,-5.36,90,100,6.42,RU,1673916583
259,pirai do sul,-24.5261,-49.9486,18.46,98,100,0.09,BR,1673916297
260,dali,25.7,100.1833,3.17,62,0,1.33,CN,1673916583
261,kachug,53.9606,105.8817,-17.92,99,100,1.4,RU,1673916584
262,gravdal,68.1214,13.5031,2.64,78,100,3.67,NO,1673916584
263,marjamaa,58.9039,24.4306,0.09,95,41,2.97,EE,1673916585
264,dingle,10.9995,122.6711,26.7,86,63,3.23,PH,1673916392
265,isangel,-19.55,169.2667,27.9,61,100,4.9,VU,1673916585
266,laguna,38.421,-121.4238,11.77,66,0,2.06,US,1673916361
267,handan,36.6006,114.4678,-1.25,46,60,1.55,CN,1673916586
268,oistins,13.0667,-59.5333,24.78,78,4,5.06,BB,1673916466
269,butaritari,3.0707,172.7902,27.14,79,15,6.68,KI,1673916233
270,victoria point,-27.5833,153.3,27.6,62,97,2.68,AU,1673916586
271,rio gallegos,-51.6226,-69.2181,16.03,29,0,7.2,AR,1673916587
272,araouane,18.9048,-3.5265,19.02,17,41,3.76,ML,1673916588
273,san cristobal,7.7669,-72.225,20.1,93,65,1.29,VE,1673916485
274,kiama,-34.6833,150.8667,28.27,62,1,5.47,AU,1673916212
275,tigil,57.8,158.6667,-14.87,87,100,1.53,RU,1673916588
276,norman wells,65.282,-126.8329,-15.98,78,100,3.6,CA,1673916212
277,sasovo,54.3537,41.9199,-7.89,94,100,4.51,RU,1673916589
278,sitka,57.0531,-135.33,5.94,70,100,6.69,US,1673916564
279,vardo,70.3705,31.1107,1.99,87,100,9.26,NO,1673916236
280,kamloops,50.6665,-120.3192,2.7,84,75,1.03,CA,1673916591
281,sembakung,3.8167,117.25,26.56,85,23,0.74,ID,1673916591
282,bakchar,57.0186,82.0711,-9.0,93,100,4.06,RU,1673916592
283,luganville,-15.5333,167.1667,29.72,69,96,1.62,VU,1673916487
284,naze,28.3667,129.4833,13.51,64,50,5.07,JP,1673916592
285,altamont,42.2068,-121.7372,2.6,67,0,5.66,US,1673916593
286,fortuna,40.5982,-124.1573,9.36,80,75,5.14,US,1673916593
287,pouembout,-21.1333,164.9,27.5,66,100,2.92,NC,1673916593
288,bahia honda,22.9036,-83.1592,17.31,57,0,2.1,CU,1673916594
289,santiago del estero,-27.7951,-64.2615,28.78,31,64,4.75,AR,1673916595
290,cagbang,10.7,122.4989,26.76,85,64,5.16,PH,1673916596
291,hualmay,-11.0964,-77.6139,21.36,77,93,3.99,PE,1673916597
292,villa rica,33.7321,-84.9191,11.37,63,100,3.09,US,1673916598
293,hami,42.8,93.45,-11.16,45,0,2.23,CN,1673916536
294,quang ngai,15.1167,108.8,19.68,92,100,3.22,VN,1673916599
295,deputatskiy,69.3,139.9,-35.5,100,100,0.41,RU,1673916599
296,arandis,-22.4167,14.9667,22.68,66,100,2.58,NA,1673916599
297,nome,64.5011,-165.4064,-6.96,79,100,9.77,US,1673916163
298,nago,26.5881,127.9761,16.24,75,95,5.36,JP,1673916600
299,qinzhou,21.95,108.6167,7.23,58,100,5.85,CN,1673916601
300,tamandare,-8.7597,-35.1047,25.14,81,100,2.48,BR,1673916601
301,bethel,41.3712,-73.414,0.64,56,0,1.54,US,1673916339
302,sao joao da barra,-21.6403,-41.0511,26.05,88,0,7.33,BR,1673916585
303,aksarayskiy,46.7924,48.0119,-7.5,69,0,3.38,RU,1673916602
304,egvekinot,66.3167,-179.1667,-29.23,84,65,8.26,RU,1673916603
305,kudahuvadhoo,2.6708,72.8944,25.9,74,41,1.35,MV,1673916603
306,ranot,7.7777,100.3213,25.64,69,49,2.12,TH,1673916603
307,cadillac,44.2519,-85.4012,0.95,93,100,4.63,US,1673916435
308,ogulin,45.2661,15.2286,6.56,79,34,7.54,HR,1673916604
309,namatanai,-3.6667,152.4333,28.7,71,100,2.3,PG,1673916312
310,padang,-0.9492,100.3543,25.72,80,97,1.79,ID,1673916394
311,hailar,49.2,119.7,-24.12,92,65,5.04,CN,1673916520
312,port-cartier,50.0334,-66.8654,-4.7,94,100,4.19,CA,1673916606
313,uige,-7.6087,15.0613,19.14,95,100,0.74,AO,1673916606
314,macau,22.2006,113.5461,9.85,81,40,8.75,MO,1673916606
315,ciawi,-7.5117,107.9767,21.86,84,97,0.99,ID,1673916607
316,ixtapa,20.7,-105.2,22.57,73,75,3.09,MX,1673916607
317,great falls,47.5002,-111.3008,1.96,86,75,3.6,US,1673916554
318,otanche,5.6567,-74.1825,18.86,96,53,0.92,CO,1673916608
319,hasaki,35.7333,140.8333,3.28,50,97,2.92,JP,1673916465
320,huarmey,-10.0681,-78.1522,21.35,75,100,2.78,PE,1673916609
321,eruwa,7.5333,3.4167,24.31,34,5,0.49,NG,1673916609
322,vermilion,40.1667,-87.7506,10.18,92,100,6.69,US,1673916610
323,aquin,18.2833,-73.4,20.84,80,0,2.93,HT,1673916611
324,sao filipe,14.8961,-24.4956,24.42,66,100,3.36,CV,1673916355
325,leningradskiy,69.3833,178.4167,-34.93,96,10,1.96,RU,1673916305
326,verkh-neyvinskiy,57.2701,60.1376,-15.48,80,0,2.64,RU,1673916612
327,nemuro,43.3236,145.575,-5.67,64,53,4.3,JP,1673916577
328,palmerston,-12.486,130.9833,30.27,75,75,3.09,AU,1673916612
329,lebu,-37.6167,-73.65,13.15,87,0,6.59,CL,1673916372
330,toppenish,46.3774,-120.3087,6.77,73,66,0.54,US,1673916554
331,jalu,29.0331,21.5482,12.27,63,0,2.55,LY,1673916614
332,lavrentiya,65.5833,-171.0,-26.13,88,99,6.4,RU,1673916496
333,dogondoutchi,13.6393,4.0287,18.83,19,100,4.82,NE,1673916614
334,lapao,-11.3833,-41.8319,19.54,75,4,4.53,BR,1673916615
335,lappeenranta,61.0587,28.1887,1.84,90,75,3.6,FI,1673916615
336,uyuni,-20.4597,-66.825,10.71,57,28,10.15,BO,1673916616
337,ushtobe,45.2514,77.9838,-18.43,86,1,1.46,KZ,1673916616
338,vostok,46.4856,135.8833,-21.77,89,83,1.61,RU,1673916617
339,alihe,50.5667,123.7167,-28.07,94,39,1.11,CN,1673916618
340,salym,60.0625,71.4789,-11.79,95,99,3.17,RU,1673916618
341,zabaykalsk,49.6333,117.3167,-23.23,92,12,5.93,RU,1673916619
342,esmeraldas,-19.7625,-44.3139,24.33,86,0,2.54,BR,1673916576
343,zaysan,47.4667,84.8667,-19.74,98,100,0.34,KZ,1673916619
344,faanui,-16.4833,-151.75,27.76,55,86,6.88,PF,1673916293
345,saint-pierre,-21.3393,55.4781,23.66,69,0,3.09,RE,1673916620
346,beinamar,8.6698,15.3813,21.26,25,92,2.07,TD,1673916621
347,victor harbor,-35.5667,138.6167,29.44,47,100,0.89,AU,1673916621
348,auki,-8.7676,160.7034,30.39,63,100,2.56,SB,1673916541
349,ambilobe,-13.2,49.05,21.86,95,100,1.39,MG,1673916622
350,binzhou,37.3667,118.0167,-2.9,58,100,3.4,CN,1673916623
351,bambous virieux,-20.3428,57.7575,25.14,78,40,7.2,MU,1673916477
352,hofn,64.2539,-15.2082,-0.12,60,100,9.58,IS,1673916624
353,meulaboh,4.1363,96.1285,23.53,88,100,2.88,ID,1673916508
354,mangan,27.5167,88.5333,9.18,46,7,1.86,IN,1673916624
355,shieli,44.1667,66.75,-5.87,46,0,4.79,KZ,1673916625
356,oltu,40.5498,42.0013,-0.39,77,99,1.92,TR,1673916626
357,borjomi,41.8527,43.4128,-0.34,77,33,2.41,GE,1673916626
358,xushan,30.1764,121.2457,1.96,49,9,3.12,CN,1673916627
359,mahebourg,-20.4081,57.7,25.16,78,40,7.2,MU,1673916209
360,bhum,18.4667,75.6667,17.67,46,0,2.08,IN,1673916628
361,catamarca,-28.4696,-65.7852,28.92,42,61,5.22,AR,1673916629
362,lake wales,27.9014,-81.5859,11.52,76,0,0.0,US,1673916070
363,nizhniy kuranakh,58.8353,125.4869,-39.69,98,100,0.79,RU,1673916629
364,mehamn,71.0357,27.8492,0.97,80,40,1.54,NO,1673916630
365,bubaque,11.2833,-15.8333,25.25,72,98,4.57,GW,1673916630
366,coihaique,-45.5752,-72.0662,15.97,59,99,1.54,CL,1673916398
367,dzaoudzi,-12.7887,45.2699,25.94,89,0,2.06,YT,1673916277
368,sumenep,-7.0167,113.8667,27.02,78,100,2.97,ID,1673916631
369,sorong,-0.8833,131.25,28.34,74,100,1.84,ID,1673916631
370,taphan hin,16.2209,100.4198,23.31,89,5,1.82,TH,1673916632
371,yuanping,38.7153,112.7575,-8.79,56,0,4.07,CN,1673916632
372,blackwater,-23.5833,148.8833,21.69,81,100,7.49,AU,1673916633
373,sinnamary,5.3833,-52.95,24.5,88,100,4.58,GF,1673916634
374,townsville,-19.25,146.8,26.49,89,75,2.57,AU,1673916634
375,rio grande,-32.035,-52.0986,22.06,80,0,5.21,BR,1673916635
376,tommot,58.9564,126.2925,-39.75,98,100,0.63,RU,1673916635
377,kursumlija,43.1458,21.2686,5.66,91,100,2.71,RS,1673916635
378,severo-kurilsk,50.6789,156.125,-5.33,62,98,5.59,RU,1673916392
379,lensk,60.7253,114.9278,-41.43,97,100,1.49,RU,1673916636
380,mbeya,-8.9,33.45,14.1,93,93,1.41,TZ,1673916637
381,joensuu,62.6012,29.7632,1.27,75,100,6.69,FI,1673916383
382,iquitos,-3.7481,-73.2472,24.02,88,75,0.0,PE,1673916637
383,bengkulu,-3.8004,102.2655,25.32,83,87,1.56,ID,1673916414
384,malyye derbety,47.9547,44.6808,-6.33,90,11,3.43,RU,1673916638
385,moose factory,51.2585,-80.6094,0.99,51,100,1.03,CA,1673916638
386,qaqortoq,60.7167,-46.0333,-20.96,68,21,5.22,GL,1673916371
387,kismayo,-0.3582,42.5454,24.38,82,4,6.52,SO,1673916641
388,panama city,8.9936,-79.5197,25.97,73,20,2.57,PA,1673916643
389,kenda,23.2,86.5333,11.03,46,0,2.34,IN,1673916643
390,aquiraz,-3.9014,-38.3911,27.05,84,100,3.05,BR,1673916644
391,douala,4.0483,9.7043,26.06,85,100,1.19,CM,1673916644
392,aberdeen,57.1437,-2.0981,-0.58,80,29,6.69,GB,1673916645
393,la sarre,48.8002,-79.1996,-7.87,92,99,2.43,CA,1673916645
394,qui nhon,13.7667,109.2333,22.03,87,100,7.17,VN,1673916646
395,marathon,44.9,-89.7668,0.96,94,100,3.6,US,1673916647
396,stepnyak,52.8339,70.7803,-10.88,79,100,4.15,KZ,1673916647
397,truro,50.2653,-5.0544,2.6,75,100,4.63,GB,1673916648
398,yumen,40.2833,97.2,-13.54,78,4,9.22,CN,1673916648
399,sorland,67.667,12.6934,1.92,76,100,5.38,NO,1673916628
400,bongandanga,1.5,21.05,22.69,73,87,1.29,CD,1673916649
401,chicama,-7.8447,-79.1469,19.3,63,90,2.53,PE,1673916650
402,talnakh,69.4865,88.3972,-36.0,85,3,1.64,RU,1673916650
403,lagoa,39.05,-27.9833,14.47,74,100,5.97,PT,1673916546
404,san vicente,-26.6167,-54.1333,21.45,77,45,1.0,AR,1673916651
405,los llanos de aridane,28.6585,-17.9182,15.62,58,75,4.63,ES,1673916651
406,esso,55.9333,158.7,-21.04,94,94,1.91,RU,1673916652
407,cerritos,33.8583,-118.0648,13.41,72,20,8.75,US,1673916652
408,farap,39.1704,63.6116,-8.11,80,11,1.42,TM,1673916653
409,halifax,44.6453,-63.5724,7.41,99,100,2.06,CA,1673916606
410,sisimiut,66.9395,-53.6735,-20.18,81,100,7.51,GL,1673916653
411,viedma,-40.8135,-62.9967,23.31,33,99,7.43,AR,1673916654
412,staryy nadym,65.6118,72.6842,-16.3,96,100,6.32,RU,1673916654
413,pratapgarh,24.0333,74.7833,7.18,45,0,3.8,IN,1673916655
414,bereda,43.2686,-7.5406,8.97,100,99,5.97,ES,1673916382
415,barra do corda,-5.5,-45.25,21.93,97,100,1.35,BR,1673916656
416,goundam,16.4145,-3.6708,19.95,17,81,4.08,ML,1673916656
417,kidal,18.4411,1.4078,17.74,19,2,4.63,ML,1673916657
418,gamba,-2.65,10.0,24.71,86,100,1.59,GA,1673916657
419,tilichiki,60.4667,166.1,-27.74,94,17,3.86,RU,1673916658
420,olinda,-8.0089,-34.8553,26.85,74,40,2.57,BR,1673916217
421,queimadas,-10.9783,-39.6264,22.98,71,78,2.95,BR,1673916623
422,zhezkazgan,47.8043,67.7144,-18.01,65,0,4.0,KZ,1673916657
423,juazeiro do norte,-7.2131,-39.3153,23.98,88,40,0.0,BR,1673916659
424,methoni,36.8197,21.7049,14.92,78,32,9.31,GR,1673916659
425,cabo san lucas,22.8909,-109.9124,23.12,53,20,4.63,MX,1673916253
426,bontang,0.1333,117.5,26.95,80,100,0.51,ID,1673916660
427,timbiras,-4.2553,-43.9406,21.5,99,100,1.17,BR,1673916660
428,mendoza,-32.8908,-68.8272,28.74,45,40,2.06,AR,1673916521
429,parkes,-33.1333,148.1833,32.97,34,0,3.49,AU,1673916661
430,korhogo,9.45,-5.6333,21.56,18,7,1.85,CI,1673916661
431,port blair,11.6667,92.75,20.02,88,84,0.0,IN,1673916654
432,caxito,-8.5785,13.6643,23.3,94,100,1.42,AO,1673916662
433,tondi,9.7333,79.0167,21.49,82,0,3.87,IN,1673916663
434,lasa,46.6166,10.7002,-0.67,94,77,1.16,IT,1673916485
435,belaya gora,68.5333,146.4167,-40.79,100,100,0.69,RU,1673916254
436,dalvik,65.9702,-18.5286,-1.04,95,100,9.6,IS,1673916665
437,pangody,65.85,74.4859,-21.35,97,100,5.39,RU,1673916666
438,northam,51.0333,-4.2167,0.34,71,100,3.54,GB,1673916667
439,baijiantan,45.6333,85.1833,-23.88,92,7,1.23,CN,1673916667
440,quthing,-30.4,27.7003,19.78,55,100,0.77,LS,1673916667
441,mecca,21.4267,39.8261,19.6,75,100,3.6,SA,1673916668
442,carutapera,-1.195,-46.02,23.24,93,44,2.34,BR,1673916471
443,jiexiu,37.0244,111.9125,-6.56,51,37,4.13,CN,1673916669
444,kizema,61.113,44.8302,-6.32,90,100,5.18,RU,1673916669
445,inuvik,68.3499,-133.7218,-21.08,81,75,1.03,CA,1673916670
446,ugoofaaru,5.6667,73.0,26.64,77,13,5.27,MV,1673916671
447,trincomalee,8.5711,81.2335,25.27,77,82,5.92,LK,1673916671
448,santa rosalia,27.3167,-112.2833,17.32,70,9,1.77,MX,1673916672
449,ballina,-28.8667,153.5667,26.68,70,5,4.16,AU,1673916672
450,creel,27.75,-107.6333,4.04,53,4,6.61,MX,1673916673
451,erenhot,43.6475,111.9767,-15.93,89,8,3.16,CN,1673916673
452,sorkjosen,69.8,20.9333,-3.0,74,100,2.06,NO,1673916674
453,tigre,-34.426,-58.5796,27.5,65,0,3.6,AR,1673916674
454,kadyy,57.787,43.1903,-8.66,93,100,4.56,RU,1673916674
455,mancora,-4.1078,-81.0475,23.25,69,100,5.77,PE,1673916675
456,daura,11.5538,11.4085,17.2,23,100,4.26,NG,1673916676
457,iskilip,40.7353,34.4739,2.58,74,15,1.44,TR,1673916676
458,port hedland,-20.3167,118.5667,30.03,74,86,6.69,AU,1673916430
459,pangai,-19.8,-174.35,31.06,70,75,1.03,TO,1673916678
460,akyab,20.15,92.9,16.28,61,0,3.03,MM,1673916678
461,grand gaube,-20.0064,57.6608,25.77,70,10,4.02,MU,1673916679
462,bocos,16.9265,121.0573,18.13,91,94,1.57,PH,1673916679
463,mapiripan,2.8892,-72.1256,24.84,70,97,0.99,CO,1673916680
464,acajutla,13.5928,-89.8275,24.24,79,15,1.86,SV,1673916680
465,vila velha,-20.3297,-40.2925,24.97,90,40,3.09,BR,1673916478
466,denpasar,-8.65,115.2167,27.08,80,100,2.25,ID,1673916246
467,henties bay,-22.116,14.2845,19.83,84,100,1.38,NA,1673916681
468,kotma,23.2,81.9667,8.47,46,0,1.18,IN,1673916682
469,noyabrsk,63.1994,75.4507,-18.32,97,100,2.58,RU,1673916682
470,bukama,-9.2,25.85,20.15,99,100,1.59,CD,1673916683
471,radstadt,47.3833,13.45,-0.27,97,100,0.3,AT,1673916683
472,dekar,-21.5333,21.9333,21.63,60,53,1.71,BW,1673916683
473,taksimo,56.3444,114.8794,-31.23,91,75,1.27,RU,1673916684
474,skogn,63.7,11.2,-5.34,83,92,2.21,NO,1673916684
475,asau,46.4333,26.4,1.51,74,33,2.18,RO,1673916449
476,at-bashi,41.1702,75.8106,-22.75,48,0,1.59,KG,1673916685
477,loa janan,-0.583,117.095,27.81,76,92,0.44,ID,1673916686
478,hearst,49.6835,-83.6665,-0.86,94,100,2.66,CA,1673916686
479,praia,14.9215,-23.5087,23.56,74,100,3.7,CV,1673916123
480,raudeberg,61.9875,5.1352,0.49,70,100,3.54,NO,1673916687
481,ust-nera,64.5667,143.2,-30.18,98,100,3.17,RU,1673916687
482,aswan,24.0934,32.907,12.61,47,0,1.54,EG,1673916688
483,hambantota,6.1241,81.1185,24.19,100,20,2.06,LK,1673916688
484,turbat,26.0023,63.044,12.87,17,61,4.66,PK,1673916689
485,wenatchee,47.4235,-120.3103,3.61,89,0,0.89,US,1673916689
486,la cruz,23.9167,-106.9,19.18,76,0,1.91,MX,1673916690
487,yamethin,20.4333,96.15,16.2,49,0,1.55,MM,1673916690
488,charters towers,-20.1,146.2667,24.24,86,100,3.86,AU,1673916691
489,kutum,14.2,24.6667,12.13,32,13,2.77,SD,1673916691
490,nieuw amsterdam,5.8833,-55.0833,25.01,88,73,4.54,SR,1673916692
491,palana,59.1167,159.9667,-14.75,91,100,4.4,RU,1673916692
492,general salgado,-20.6483,-50.3606,22.74,88,100,2.94,BR,1673916693
493,abalak,58.1286,68.5944,-14.11,92,30,3.35,RU,1673916693
494,berkovica,44.6156,18.4294,7.95,82,98,2.26,BA,1673916694
495,lompoc,34.6391,-120.4579,10.22,94,75,7.72,US,1673916498
496,eldorado,-23.7869,-54.2836,27.27,65,84,1.41,BR,1673916678
497,veraval,20.9,70.3667,15.64,32,64,4.54,IN,1673916695
498,alofi,-19.0595,-169.9187,28.94,74,75,4.12,NU,1673916695
499,varnamo,57.186,14.04,2.93,85,100,6.15,SE,1673916696
500,avenal,36.0041,-120.129,7.87,73,100,1.8,US,1673916696
501,nanortalik,60.1432,-45.2371,-12.43,61,7,7.39,GL,1673916543
502,ouallam,14.3188,2.0866,18.68,16,29,4.93,NE,1673916697
503,paidha,2.4167,30.9855,17.39,47,76,2.04,UG,1673916697
504,christchurch,-43.5333,172.6333,19.71,70,100,5.14,NZ,1673916623
505,helong,42.5397,128.9972,-9.71,51,7,1.93,CN,1673916448
506,tuy hoa,13.0833,109.3,21.9,89,93,4.74,VN,1673916698
507,chaumont,48.1167,5.1333,1.32,93,92,3.05,FR,1673916699
508,carberry,49.8689,-99.3602,-8.87,94,100,4.02,CA,1673916699
509,harper,4.375,-7.7169,25.81,80,0,0.94,LR,1673916164
510,chadiza,-14.0678,32.4392,16.66,97,100,1.25,ZM,1673916700
511,chokwe,-24.5333,32.9833,22.95,88,100,1.81,MZ,1673916700
512,la ronge,55.1001,-105.2842,-18.25,100,99,1.47,CA,1673916701
513,tecoanapa,16.5167,-98.75,25.54,77,0,2.77,MX,1673916701
514,richards bay,-28.783,32.0377,21.98,91,84,4.03,ZA,1673916241
515,bindura,-17.3019,31.3306,18.1,97,100,1.6,ZW,1673916702
516,funchal,32.6333,-16.9,15.25,82,40,4.63,PT,1673916702
517,san quintin,30.4833,-115.95,14.8,84,97,6.79,MX,1673916481
518,grong,64.4654,12.3149,-5.4,97,93,2.21,NO,1673916703
519,sohag,26.557,31.6948,9.16,62,0,1.69,EG,1673916703
520,khuzdar,27.7384,66.6434,6.77,22,0,2.66,PK,1673916704
521,shingu,33.7333,135.9833,8.58,44,0,2.05,JP,1673916705
522,ambon,-3.6954,128.1814,28.44,73,100,1.49,ID,1673916161
523,ukiah,39.1502,-123.2078,9.72,71,0,4.63,US,1673916615
524,tripoli,32.8752,13.1875,14.21,45,1,8.43,LY,1673916706
525,arinos,-15.9169,-46.1056,20.47,81,2,0.78,BR,1673916706
526,aitape,-3.1374,142.3475,28.49,67,98,1.11,PG,1673916707
527,sai buri,6.7013,101.6168,26.09,78,40,2.14,TH,1673916707
528,tempio pausania,40.8974,9.1035,7.51,93,100,6.82,IT,1673916708
529,morros,-9.4467,-46.3003,22.22,84,100,1.55,BR,1673916709
530,kolokani,13.5728,-8.0339,20.05,16,7,4.23,ML,1673916709
531,yashkul,46.1711,45.3435,-2.56,77,7,4.13,RU,1673916709
532,bari sadri,24.4167,74.4667,5.87,38,0,2.9,IN,1673916710
533,macheng,31.1783,115.0319,0.82,55,3,0.63,CN,1673916710
534,dundee,56.5,-2.9667,-2.16,81,9,3.34,GB,1673916711
535,sur,22.5667,59.5289,19.65,67,23,1.54,OM,1673916711
536,chara,56.9064,118.2631,-35.28,86,94,0.61,RU,1673916711
537,mayor pablo lagerenza,-19.9309,-60.7718,27.38,56,84,2.32,PY,1673916712
538,ban nahin,18.2418,104.2122,15.91,74,5,2.12,LA,1673916713
539,lebanon,36.2081,-86.2911,11.81,92,75,5.66,US,1673916713
540,ranong,9.9658,98.6348,15.96,64,22,1.25,TH,1673916714
541,necochea,-38.5473,-58.7368,17.4,80,0,6.0,AR,1673916715
542,progreso,21.2833,-89.6667,22.29,77,5,5.42,MX,1673916715
543,khromtau,50.2503,58.4347,-19.95,74,0,1.65,KZ,1673916716
544,am timan,11.0297,20.2827,21.97,25,26,2.73,TD,1673916668
545,riohacha,11.5444,-72.9072,26.06,83,0,5.14,CO,1673916716
546,cadereyta,25.5833,-99.9833,27.32,33,0,2.69,MX,1673916718
547,anloga,5.7947,0.8973,27.28,78,10,2.33,GH,1673916718
548,grootfontein,-19.5667,18.1167,16.76,100,100,0.0,NA,1673916718
549,vanavara,60.34,102.2797,-30.72,97,100,3.81,RU,1673916719
550,llanes,43.4198,-4.7549,13.27,81,49,16.99,ES,1673916719
551,maua,-23.6678,-46.4614,22.73,93,100,1.6,BR,1673916345
552,pasni,25.2631,63.471,16.65,30,100,5.42,PK,1673916720
553,warri,5.5167,5.75,23.76,92,76,0.98,NG,1673916720
554,lykhivka,48.6874,33.9228,1.14,89,100,6.24,UA,1673916721
555,waipawa,-41.4122,175.5153,20.67,60,8,2.46,NZ,1673916721
556,corn island,12.1694,-83.0418,25.68,69,9,7.42,NI,1673916722
557,nardaran,40.5561,50.0056,7.8,76,100,4.12,AZ,1673916722
558,fairbanks,64.8378,-147.7164,-14.27,80,0,1.54,US,1673916600
559,eyl,7.9803,49.8164,22.96,76,25,6.42,SO,1673916494
560,salalah,17.0151,54.0924,20.06,81,70,0.69,OM,1673916663
561,kabin buri,13.9511,101.7177,24.73,60,14,1.26,TH,1673916723
562,mizdah,31.4451,12.9801,8.09,43,0,4.22,LY,1673916723
563,havelock,34.8791,-76.9013,6.92,62,100,0.45,US,1673916724
564,dhrol,22.5667,70.4167,11.66,38,5,3.9,IN,1673916724
565,dwarka,22.2394,68.9678,17.53,40,6,5.46,IN,1673916725
566,singaraja,-8.112,115.0882,27.49,79,100,0.16,ID,1673916725
567,korsor,55.3299,11.1386,3.88,100,100,9.93,DK,1673916726
568,pisco,-13.7,-76.2167,22.03,83,0,6.69,PE,1673916726
569,batemans bay,-35.7167,150.1833,23.94,53,0,5.24,AU,1673916588
570,cebu,10.3167,123.8907,25.81,89,75,1.54,PH,1673916727
571,tenenkou,14.4572,-4.9169,21.24,16,65,4.64,ML,1673916727
